[{"Licence number":"LIQC300200035","Licence name":"Barooga Sports Club Ltd","Address":"12 Burkinshaw St","Suburb":"BAROOGA","Postcode":3644,"Latitude":-35.9064,"Longitude":145.6868,"lgaIdNSW":"10650","EGMs":160},{"Licence number":"LIQC300238164","Licence name":"Berrigan Sports Club","Address":"Stewart & Drummond Sts","Suburb":"BERRIGAN","Postcode":2712,"Latitude":-35.6608,"Longitude":145.8056,"lgaIdNSW":"10650","EGMs":6},{"Licence number":"LIQC300238180","Licence name":"Finley Bowling Club Ltd","Address":"Cnr Deniliquin Rd & Murray St","Suburb":"FINLEY","Postcode":2713,"Latitude":-35.6376,"Longitude":145.5797,"lgaIdNSW":"10650","EGMs":12},{"Licence number":"LIQC300238229","Licence name":"Finley Returned Soldiers Club Ltd","Address":"63-67 Tocumwal St","Suburb":"FINLEY","Postcode":2713,"Latitude":-35.6418,"Longitude":145.571,"lgaIdNSW":"10650","EGMs":41},{"Licence number":"LIQC300245209","Licence name":"Tocumwal Golf Club Limited","Address":"Barooga Rd","Suburb":"TOCUMWAL","Postcode":2714,"Latitude":-35.8214,"Longitude":145.5822,"lgaIdNSW":"10650","EGMs":71}]
