[{"Licence number":"LIQC300244377","Licence name":"Barmedman Bowling Club Ltd","Address":"44 Queen St","Suburb":"BARMEDMAN","Postcode":2668,"Latitude":-34.1459,"Longitude":147.3865,"lgaIdNSW":"10800","EGMs":10},{"Licence number":"LIQC300244407","Licence name":"Ungarie Bowling Co-operative","Address":"Euglo St","Suburb":"UNGARIE","Postcode":2669,"Latitude":-33.6384,"Longitude":146.9739,"lgaIdNSW":"10800","EGMs":5},{"Licence number":"LIQC300244423","Licence name":"Weethalle Country Club","Address":"Showground Rd","Suburb":"WEETHALLE","Postcode":2669,"Latitude":-33.8735,"Longitude":146.6218,"lgaIdNSW":"10800","EGMs":5},{"Licence number":"LIQC300244431","Licence name":"West Wyalong Services & Citizens Club Ltd","Address":"100 Monash St","Suburb":"WEST WYALONG","Postcode":2671,"Latitude":-33.9218,"Longitude":147.207,"lgaIdNSW":"10800","EGMs":51},{"Licence number":"LIQC300244458","Licence name":"West Wyalong Bowling Recreation Club Ltd","Address":"75 Monash St","Suburb":"WEST WYALONG","Postcode":2671,"Latitude":-33.9192,"Longitude":147.2087,"lgaIdNSW":"10800","EGMs":5},{"Licence number":"LIQC324007361","Licence name":"West Wyalong Services & Citizens Sports Club","Address":"Tallimba Rd","Suburb":"WEST WYALONG","Postcode":2671,"Latitude":-33.9218,"Longitude":147.207,"lgaIdNSW":"10800","EGMs":8}]
