[{"Licence number":"LIQC300236935","Licence name":"Cowra Services Club","Address":"101 BRISBANE ST","Suburb":"COWRA","Postcode":2794,"Latitude":-33.8341,"Longitude":148.6918,"lgaIdNSW":"12350","EGMs":59},{"Licence number":"LIQC300236943","Licence name":"Cowra Bowling Club Limited","Address":"27 Vaux St","Suburb":"COWRA","Postcode":2794,"Latitude":-33.8377,"Longitude":148.6916,"lgaIdNSW":"12350","EGMs":50},{"Licence number":"LIQC300236951","Licence name":"Cowra Golf Club Ltd","Address":"Mees St","Suburb":"COWRA","Postcode":2794,"Latitude":-33.8437,"Longitude":148.6787,"lgaIdNSW":"12350","EGMs":10},{"Licence number":"LIQC300236978","Licence name":"Woodstock Bowling, Sport and Recreation Club Limited","Address":"Waugoola St","Suburb":"WOODSTOCK","Postcode":2793,"Latitude":-33.7463,"Longitude":148.8511,"lgaIdNSW":"12350","EGMs":4},{"Licence number":"LIQC300237699","Licence name":"Gooloogong Country Club Limited","Address":"Racecourse Rd","Suburb":"GOOLOOGONG","Postcode":2805,"Latitude":-33.6198,"Longitude":148.4341,"lgaIdNSW":"12350","EGMs":5},{"Licence number":"LIQC300245160","Licence name":"Wyangala Dam Country Club Limited","Address":"Sixth Ave","Suburb":"WYANGALA","Postcode":2808,"Latitude":-33.9639,"Longitude":148.9451,"lgaIdNSW":"12350","EGMs":11}]
