[{"Licence number":"LIQC300238091","Licence name":"Ashford Memorial Bowling Club Limited","Address":"34 Duff St","Suburb":"ASHFORD","Postcode":2361,"Latitude":-29.3228,"Longitude":151.0963,"lgaIdNSW":"14220","EGMs":15},{"Licence number":"LIQC300238121","Licence name":"Inverell East Bowling Club Ltd","Address":"21-29 Glen Innes Rd","Suburb":"INVERELL","Postcode":2360,"Latitude":-29.7801,"Longitude":151.118,"lgaIdNSW":"14220","EGMs":33},{"Licence number":"LIQC300238148","Licence name":"Inverell Golf Club","Address":"Tingha Rd","Suburb":"INVERELL","Postcode":2360,"Latitude":-29.8213,"Longitude":151.1124,"lgaIdNSW":"14220","EGMs":3},{"Licence number":"LIQC300238156","Licence name":"Inverell Returned Servicemen's Club Limited","Address":"66-76 Evans St","Suburb":"INVERELL","Postcode":2360,"Latitude":-29.7739,"Longitude":151.1149,"lgaIdNSW":"14220","EGMs":62},{"Licence number":"LIQC300244970","Licence name":"Delungra Memorial Bowling & Recreation Club","Address":"30 Inverell St","Suburb":"DELUNGRA","Postcode":2403,"Latitude":-29.6537,"Longitude":150.8286,"lgaIdNSW":"14220","EGMs":6},{"Licence number":"LIQC324000621","Licence name":"Tingha Sport & Recreation Club Limited","Address":"New Valley Rd","Suburb":"TINGHA","Postcode":2369,"Latitude":-29.9796,"Longitude":151.2593,"lgaIdNSW":"14220","EGMs":6}]
