[{"Licence number":"LIQC300239810","Licence name":"Denman Co-operative Bowling Club","Address":"46 Palace St","Suburb":"DENMAN","Postcode":2328,"Latitude":-32.3923,"Longitude":150.6876,"lgaIdNSW":"15650","EGMs":10},{"Licence number":"LIQC300239829","Licence name":"Denman Sub-Branch RSL & AILA Club","Address":"42 Paxton St","Suburb":"DENMAN","Postcode":2328,"Latitude":-32.3869,"Longitude":150.6867,"lgaIdNSW":"15650","EGMs":20},{"Licence number":"LIQC300239888","Licence name":"Muswellbrook & District Workers Club Ltd","Address":"15-17 Sydney St","Suburb":"MUSWELLBROOK","Postcode":2333,"Latitude":-32.2673,"Longitude":150.887,"lgaIdNSW":"15650","EGMs":61},{"Licence number":"LIQC300239896","Licence name":"Muswellbrook Golf Club","Address":"Bell St","Suburb":"MUSWELLBROOK","Postcode":2333,"Latitude":-32.2722,"Longitude":150.894,"lgaIdNSW":"15650","EGMs":19},{"Licence number":"LIQC300239918","Licence name":"Muswellbrook RSL Sub-branch Club Limited","Address":"113 BRIDGE ST","Suburb":"MUSWELLBROOK","Postcode":2333,"Latitude":-32.2602,"Longitude":150.8901,"lgaIdNSW":"15650","EGMs":60}]
