[{"Licence number":"LIQC300235653","Licence name":"Club Bowral","Address":"40 Shepherd St","Suburb":"BOWRAL","Postcode":2576,"Latitude":-34.4803,"Longitude":150.4259,"lgaIdNSW":"18350","EGMs":24},{"Licence number":"LIQC300235696","Licence name":"The Bundanoon Club Limited","Address":"Erith St","Suburb":"BUNDANOON","Postcode":2578,"Latitude":-34.6531,"Longitude":150.3043,"lgaIdNSW":"18350","EGMs":6},{"Licence number":"LIQC300235718","Licence name":"Highlands Golf Club Ltd","Address":"Hume Hwy","Suburb":"MITTAGONG","Postcode":2575,"Latitude":-34.4455,"Longitude":150.4601,"lgaIdNSW":"18350","EGMs":14},{"Licence number":"LIQC300235734","Licence name":"Mittagong RSL Club","Address":"Bessemer St","Suburb":"MITTAGONG","Postcode":2575,"Latitude":-34.4501,"Longitude":150.4414,"lgaIdNSW":"18350","EGMs":168},{"Licence number":"LIQC300235750","Licence name":"Moss Vale Golf Club","Address":"Arthur St","Suburb":"MOSS VALE","Postcode":2577,"Latitude":-34.5572,"Longitude":150.3724,"lgaIdNSW":"18350","EGMs":6},{"Licence number":"LIQC300235769","Licence name":"Moss Vale Services Club Limited","Address":"Argyle & Yarrawa Sts","Suburb":"MOSS VALE","Postcode":2577,"Latitude":-34.554,"Longitude":150.3642,"lgaIdNSW":"18350","EGMs":79},{"Licence number":"LIQC300235777","Licence name":"Robertson Bowling Club Limited","Address":"Yarranga St","Suburb":"ROBERTSON","Postcode":2577,"Latitude":-34.5901,"Longitude":150.5946,"lgaIdNSW":"18350","EGMs":16}]
